{"posts": {"post": [{"stop_lat": "40.043876", "stop_name": "Paoli Hospital", "stop_lon": "-75.499631", "stop_id": "2013"}, {"stop_lat": "40.047716", "stop_name": "Lancaster Ave And Main Ave", "stop_lon": "-75.441989", "stop_id": "2014"}, {"stop_lat": "40.043970", "stop_name": "Lancaster Ave And Wayne Ave", "stop_lon": "-75.388117", "stop_id": "2016"}, {"stop_lat": "40.043225", "stop_name": "Radnor NHSL Station", "stop_lon": "-75.359208", "stop_id": "2017"}, {"stop_lat": "40.021006", "stop_name": "Lancaster Ave And Bryn Mawr Ave", "stop_lon": "-75.317256", "stop_id": "2018"}, {"stop_lat": "40.008564", "stop_name": "Suburban Square (Ardmore)", "stop_lon": "-75.289846", "stop_id": "694"}, {"stop_lat": "40.006726", "stop_name": "Cricket Terrace (Ardmore)", "stop_lon": "-75.290759", "stop_id": "2496"}, {"stop_lat": "40.006330", "stop_name": "Lancaster Ave And Rittenhouse Place", "stop_lon": "-75.288018", "stop_id": "19446"}, {"stop_lat": "40.001418", "stop_name": "Wynnewood Shopping Center", "stop_lon": "-75.272864", "stop_id": "2004"}, {"stop_lat": "39.983466", "stop_name": "63rd St And Malvern Ave (Overbrook)", "stop_lon": "-75.247328", "stop_id": "20575"}, {"stop_lat": "39.962846", "stop_name": "69th Street (North Terminal)", "stop_lon": "-75.257762", "stop_id": "2024"}]}}