{"posts": {"post": [{"stop_lat": "39.962846", "stop_name": "69th Street (North Terminal)", "stop_lon": "-75.257762", "stop_id": "2024"}, {"stop_lat": "39.981409", "stop_name": "63rd St And Malvern Ave", "stop_lon": "-75.251149", "stop_id": "20549"}, {"stop_lat": "40.001418", "stop_name": "Wynnewood Shopping Center", "stop_lon": "-75.272864", "stop_id": "2004"}, {"stop_lat": "40.009121", "stop_name": "Lancaster Ave And Rittenhouse Pl", "stop_lon": "-75.293331", "stop_id": "19321"}, {"stop_lat": "40.006726", "stop_name": "Cricket Terrace (Ardmore)", "stop_lon": "-75.290759", "stop_id": "2496"}, {"stop_lat": "40.008564", "stop_name": "Suburban Square (Ardmore)", "stop_lon": "-75.289846", "stop_id": "694"}, {"stop_lat": "40.021462", "stop_name": "Lancaster Ave And Bryn Mawr Ave", "stop_lon": "-75.317858", "stop_id": "2007"}, {"stop_lat": "40.043127", "stop_name": "Radnor NHSL Station", "stop_lon": "-75.359374", "stop_id": "2008"}, {"stop_lat": "40.044148", "stop_name": "Lancaster Ave And Wayne Ave", "stop_lon": "-75.387774", "stop_id": "2009"}, {"stop_lat": "40.047796", "stop_name": "Lancaster Ave And Main Ave", "stop_lon": "-75.442000", "stop_id": "2011"}, {"stop_lat": "40.043876", "stop_name": "Paoli Hospital", "stop_lon": "-75.499631", "stop_id": "2013"}]}}