{"posts": {"post": [{"stop_lat": "39.962073", "stop_name": "69th Street (West Terminal)", "stop_lon": "-75.260197", "stop_id": "15497"}, {"stop_lat": "39.940989", "stop_name": "Marshall And Burmont Rds", "stop_lon": "-75.293815", "stop_id": "2029"}, {"stop_lat": "39.936110", "stop_name": "Burmont Rd And Dennison Ave", "stop_lon": "-75.289054", "stop_id": "2035"}, {"stop_lat": "39.951319", "stop_name": "Garrett Rd And Lansdowne Ave", "stop_lon": "-75.282069", "stop_id": "14860"}, {"stop_lat": "39.941948", "stop_name": "Garrett Rd And Burnley La", "stop_lon": "-75.301964", "stop_id": "19129"}, {"stop_lat": "39.921654", "stop_name": "Primos Railroad Station", "stop_lon": "-75.299045", "stop_id": "2072"}, {"stop_lat": "39.901265", "stop_name": "South Ave And MacDade Blvd", "stop_lon": "-75.302257", "stop_id": "20145"}, {"stop_lat": "39.907963", "stop_name": "Morton Railroad Station", "stop_lon": "-75.327028", "stop_id": "2074"}, {"stop_lat": "39.914058", "stop_name": "Springfield Mall", "stop_lon": "-75.350861", "stop_id": "2047"}, {"stop_lat": "39.962392", "stop_name": "Lawrence Park Shopping Center", "stop_lon": "-75.354171", "stop_id": "2093"}]}}