{"posts": {"post": [{"stop_lat": "39.962133", "stop_name": "69th Street (South Terminal)", "stop_lon": "-75.258331", "stop_id": "1148"}, {"stop_lat": "39.941183", "stop_name": "Church Lane And Baltimore Ave", "stop_lon": "-75.256256", "stop_id": "1150"}, {"stop_lat": "39.926524", "stop_name": "Church Lane And Chester Ave", "stop_lon": "-75.246316", "stop_id": "1151"}, {"stop_lat": "39.925613", "stop_name": "65th St And Woodland Ave", "stop_lon": "-75.234514", "stop_id": "1153"}, {"stop_lat": "39.913230", "stop_name": "Passyunk Ave And Elmwood Ave", "stop_lon": "-75.243154", "stop_id": "1156"}, {"stop_lat": "39.903690", "stop_name": "78th St And Lindbergh Blvd", "stop_lon": "-75.243342", "stop_id": "1157"}, {"stop_lat": "39.894432", "stop_name": "84th St And Crane St", "stop_lon": "-75.247047", "stop_id": "15054"}, {"stop_lat": "39.886398", "stop_name": "PNC Operations", "stop_lon": "-75.246136", "stop_id": "617"}, {"stop_lat": "39.876159", "stop_name": "PHL - Terminal A Arrivals", "stop_lon": "-75.244333", "stop_id": "1160"}, {"stop_lat": "39.874521", "stop_name": "Airport Business Center", "stop_lon": "-75.280870", "stop_id": "2501"}, {"stop_lat": "39.858936", "stop_name": "UPS Employment Center", "stop_lon": "-75.258011", "stop_id": "818"}]}}