{"posts": {"post": [{"stop_lat": "39.962073", "stop_name": "69th Street (West Terminal)", "stop_lon": "-75.260197", "stop_id": "15497"}, {"stop_lat": "39.959720", "stop_name": "State Rd And Lansdowne Ave", "stop_lon": "-75.287017", "stop_id": "2050"}, {"stop_lat": "39.946656", "stop_name": "State Rd And Township Line Rd", "stop_lon": "-75.322191", "stop_id": "18977"}, {"stop_lat": "39.938758", "stop_name": "State Rd And Sproul Rd", "stop_lon": "-75.349319", "stop_id": "14849"}, {"stop_lat": "39.915002", "stop_name": "Granite Run Mall", "stop_lon": "-75.432465", "stop_id": "2055"}, {"stop_lat": "39.918080", "stop_name": "Fair Acres Geriatric Center", "stop_lon": "-75.444174", "stop_id": "15069"}, {"stop_lat": "39.928397", "stop_name": "Penn State University", "stop_lon": "-75.447222", "stop_id": "29921"}, {"stop_lat": "39.883543", "stop_name": "Concordville Town Centre", "stop_lon": "-75.524557", "stop_id": "2347"}, {"stop_lat": "39.878750", "stop_name": "Chadds Ford Business Campus", "stop_lon": "-75.546186", "stop_id": "2505"}]}}