{"posts": {"post": [{"stop_lat": "39.962133", "stop_name": "69th Street (South Terminal)", "stop_lon": "-75.258331", "stop_id": "1148"}, {"stop_lat": "39.953797", "stop_name": "69th Street Blvd And Marshall Rd", "stop_lon": "-75.258611", "stop_id": "1149"}, {"stop_lat": "39.926524", "stop_name": "Church Lane And Chester Ave", "stop_lon": "-75.246316", "stop_id": "1151"}, {"stop_lat": "39.917394", "stop_name": "Island Ave And Woodland Ave", "stop_lon": "-75.246491", "stop_id": "14656"}, {"stop_lat": "39.906586", "stop_name": "74th And Lindbergh (Postal Facility)", "stop_lon": "-75.234884", "stop_id": "24897"}]}}