{"posts": {"post": [{"stop_lat": "39.935177", "stop_name": "Cheyney University", "stop_lon": "-75.529489", "stop_id": "2181"}, {"stop_lat": "39.950238", "stop_name": "Street Road And Middletown Road", "stop_lon": "-75.510593", "stop_id": "2183"}, {"stop_lat": "39.974592", "stop_name": "West Chester Pike And Providence", "stop_lon": "-75.449418", "stop_id": "1994"}, {"stop_lat": "39.986674", "stop_name": "West Chester And Newtown Street Rd", "stop_lon": "-75.400261", "stop_id": "1995"}, {"stop_lat": "39.981687", "stop_name": "West Chester Pike And Sproul", "stop_lon": "-75.360710", "stop_id": "1996"}, {"stop_lat": "39.972866", "stop_name": "Manoa (West Chester Pike And Eagle)", "stop_lon": "-75.319127", "stop_id": "1998"}, {"stop_lat": "39.962073", "stop_name": "69th Street (West Terminal)", "stop_lon": "-75.260197", "stop_id": "15497"}]}}