{"posts": {"post": [{"stop_lat": "40.064642", "stop_name": "Morrell Park (Frankford And City Line)", "stop_lon": "-74.981273", "stop_id": "954"}, {"stop_lat": "40.086100", "stop_name": "Franklin Mills Mall (Marshall's)", "stop_lon": "-74.964244", "stop_id": "410"}, {"stop_lat": "40.110046", "stop_name": "Bridgewater And Byberry Rds (Ind. Pk.)", "stop_lon": "-74.926866", "stop_id": "21132"}, {"stop_lat": "40.123539", "stop_name": "Bensalem (New Falls And Bensalem)", "stop_lon": "-74.904316", "stop_id": "1789"}, {"stop_lat": "40.119403", "stop_name": "Ford Rd And Wharton Rd (Ind. Pk.)", "stop_lon": "-74.890782", "stop_id": "21149"}, {"stop_lat": "40.110442", "stop_name": "Bristol (Bucks County Office Ctr.)", "stop_lon": "-74.876659", "stop_id": "1784"}, {"stop_lat": "40.101920", "stop_name": "Bristol Comm. Pk. Shop. Ctr.", "stop_lon": "-74.869498", "stop_id": "1783"}, {"stop_lat": "40.103630", "stop_name": "Bristol Rail Station", "stop_lon": "-74.855445", "stop_id": "1793"}, {"stop_lat": "40.133123", "stop_name": "Green Lane And Mill Creek Road", "stop_lon": "-74.858654", "stop_id": "1794"}, {"stop_lat": "40.159189", "stop_name": "Penndel (Durham And Lincoln Hwy)", "stop_lon": "-74.910924", "stop_id": "1795"}, {"stop_lat": "40.182396", "stop_name": "Oxford Valley Mall", "stop_lon": "-74.881256", "stop_id": "332"}]}}