{"posts": {"post": [{"stop_lat": "40.238951", "stop_name": "Bucks County Community College", "stop_lon": "-74.965549", "stop_id": "29691"}, {"stop_lat": "40.229230", "stop_name": "Newtown (State And Washington)", "stop_lon": "-74.935729", "stop_id": "1810"}, {"stop_lat": "40.225291", "stop_name": "Pheasant Run And Terry Dr (Ind. Cmns.)", "stop_lon": "-74.909911", "stop_id": "28637"}, {"stop_lat": "40.202395", "stop_name": "St. Mary Medical Center", "stop_lon": "-74.925234", "stop_id": "1799"}, {"stop_lat": "40.176505", "stop_name": "Langhorne (Pine And Richardson)", "stop_lon": "-74.917456", "stop_id": "23587"}, {"stop_lat": "40.161052", "stop_name": "Langhorne Rail Station", "stop_lon": "-74.912545", "stop_id": "23591"}, {"stop_lat": "40.137686", "stop_name": "Neshaminy Mall (near Boscov's)", "stop_lon": "-74.953631", "stop_id": "330"}, {"stop_lat": "40.120767", "stop_name": "Parx Casino", "stop_lon": "-74.952477", "stop_id": "18973"}, {"stop_lat": "40.101922", "stop_name": "Dunks Ferry Rd And Plum Ave", "stop_lon": "-74.957727", "stop_id": "1816"}, {"stop_lat": "40.086100", "stop_name": "Franklin Mills Mall (Marshalls)", "stop_lon": "-74.964244", "stop_id": "410"}]}}