{"posts": {"post": [{"stop_lat": "40.235159", "stop_name": "Montgomery Mall (Macy?s)", "stop_lon": "-75.242856", "stop_id": "1617"}, {"stop_lat": "40.245134", "stop_name": "North Wales Rd And Horsham Rd", "stop_lon": "-75.239768", "stop_id": "15287"}, {"stop_lat": "40.242621", "stop_name": "Lansdale Rail Station", "stop_lon": "-75.285570", "stop_id": "29697"}, {"stop_lat": "40.285109", "stop_name": "Hatfield (Broad And Market)", "stop_lon": "-75.296484", "stop_id": "28745"}, {"stop_lat": "40.309517", "stop_name": "Souderton (Main And Broad)", "stop_lon": "-75.320456", "stop_id": "1658"}, {"stop_lat": "40.331006", "stop_name": "Telford (Landis Market)", "stop_lon": "-75.335061", "stop_id": "1660"}]}}