{"posts": {"post": [{"stop_lat": "40.331006", "stop_name": "Telford (Landis Market)", "stop_lon": "-75.335061", "stop_id": "1660"}, {"stop_lat": "40.309838", "stop_name": "Souderton (Main And Broad)", "stop_lon": "-75.319622", "stop_id": "1661"}, {"stop_lat": "40.281805", "stop_name": "Hatfield (Broad And Market)", "stop_lon": "-75.296890", "stop_id": "1662"}, {"stop_lat": "40.242644", "stop_name": "Lansdale Rail Station", "stop_lon": "-75.285901", "stop_id": "30338"}, {"stop_lat": "40.244848", "stop_name": "North Wales Rd And Horsham Rd", "stop_lon": "-75.239629", "stop_id": "15288"}, {"stop_lat": "40.235159", "stop_name": "Montgomery Mall (Macy?s)", "stop_lon": "-75.242856", "stop_id": "1617"}]}}