{"posts": {"post": [{"stop_lat": "40.145173", "stop_name": "601 Office Center Dr", "stop_lon": "-75.175482", "stop_id": "1845"}, {"stop_lat": "40.137139", "stop_name": "Delaware Dr And Virginia Dr", "stop_lon": "-75.192250", "stop_id": "29117"}, {"stop_lat": "40.136610", "stop_name": "Delaware Dr And Commerce Dr", "stop_lon": "-75.195543", "stop_id": "29118"}, {"stop_lat": "40.137570", "stop_name": "Pennsylvania Ave And Commerce Ave", "stop_lon": "-75.203892", "stop_id": "29121"}, {"stop_lat": "40.136077", "stop_name": "Fort Washington Station", "stop_lon": "-75.212380", "stop_id": "1839"}]}}