{"posts": {"post": [{"stop_lat": "40.042367", "stop_name": "Paoli Rail Station", "stop_lon": "-75.484057", "stop_id": "1874"}, {"stop_lat": "40.047541", "stop_name": "Uptown Worthington", "stop_lon": "-75.520966", "stop_id": "30421"}, {"stop_lat": "40.040777", "stop_name": "Lincoln Court Shopping Center", "stop_lon": "-75.541164", "stop_id": "2290"}, {"stop_lat": "40.033783", "stop_name": "US Route 30 And Phoenixville Pike", "stop_lon": "-75.580841", "stop_id": "26857"}, {"stop_lat": "40.029368", "stop_name": "Whiteland Business Park", "stop_lon": "-75.606165", "stop_id": "29713"}, {"stop_lat": "40.031042", "stop_name": "Exton Square Mall", "stop_lon": "-75.621219", "stop_id": "30417"}, {"stop_lat": "40.058762", "stop_name": "Welsh Pool Road And Phillips Drive", "stop_lon": "-75.644473", "stop_id": "29217"}, {"stop_lat": "40.050937", "stop_name": "Lionville Village Center", "stop_lon": "-75.662850", "stop_id": "2300"}, {"stop_lat": "40.067019", "stop_name": "Eagleview Corporate Park", "stop_lon": "-75.677852", "stop_id": "2302"}]}}