{"posts": {"post": [{"stop_lat": "40.023651", "stop_name": "Frankford Transportation Center", "stop_lon": "-75.077621", "stop_id": "340"}, {"stop_lat": "40.044120", "stop_name": "Roosevelt Blvd And Cottman Ave", "stop_lon": "-75.054168", "stop_id": "8"}, {"stop_lat": "40.058461", "stop_name": "Roosevelt Blvd And Holme Ave", "stop_lon": "-75.044383", "stop_id": "9"}, {"stop_lat": "40.069096", "stop_name": "Grant Ave And Academy Rd", "stop_lon": "-75.007232", "stop_id": "406"}, {"stop_lat": "40.075392", "stop_name": "Morrell Ave And East Keswick Rd", "stop_lon": "-74.989869", "stop_id": "407"}, {"stop_lat": "40.084005", "stop_name": "Academy Rd And Chalfont Dr", "stop_lon": "-74.990001", "stop_id": "408"}, {"stop_lat": "40.093482", "stop_name": "Knights Rd And Mechanicsville Rd", "stop_lon": "-74.962208", "stop_id": "409"}, {"stop_lat": "40.086100", "stop_name": "Franklin Mills (Marshall's)", "stop_lon": "-74.964244", "stop_id": "410"}, {"stop_lat": "40.120767", "stop_name": "Parx Casino", "stop_lon": "-74.952477", "stop_id": "18973"}]}}