{"posts": {"post": [{"stop_lat": "39.916405", "stop_name": "Broad St And Oregon Ave", "stop_lon": "-75.171178", "stop_id": "20959"}, {"stop_lat": "39.936974", "stop_name": "11th St And Washington Ave", "stop_lon": "-75.161436", "stop_id": "1183"}, {"stop_lat": "39.951942", "stop_name": "11th St And Market St", "stop_lon": "-75.158215", "stop_id": "1184"}, {"stop_lat": "39.970702", "stop_name": "11th St And Girard Ave", "stop_lon": "-75.154081", "stop_id": "1185"}, {"stop_lat": "39.992940", "stop_name": "Germantown Ave And Lehigh Ave", "stop_lon": "-75.147855", "stop_id": "1186"}, {"stop_lat": "40.008936", "stop_name": "Broad St And Erie Ave", "stop_lon": "-75.150660", "stop_id": "1188"}, {"stop_lat": "40.035741", "stop_name": "Germantown Ave And Chelten Ave", "stop_lon": "-75.174467", "stop_id": "949"}, {"stop_lat": "40.052703", "stop_name": "Germantown Ave And Westview Ave", "stop_lon": "-75.185737", "stop_id": "1190"}, {"stop_lat": "40.077733", "stop_name": "Germantown And Bethlehem (Chestnut Hill)", "stop_lon": "-75.208346", "stop_id": "21222"}]}}