{"posts": {"post": [{"stop_lat": "40.032663", "stop_name": "Ridge Ave And Lyceum Ave", "stop_lon": "-75.214928", "stop_id": "21232"}, {"stop_lat": "40.004728", "stop_name": "29th St And Allegheny Ave", "stop_lon": "-75.176923", "stop_id": "261"}, {"stop_lat": "39.981296", "stop_name": "33rd St And Oxford St", "stop_lon": "-75.188714", "stop_id": "581"}, {"stop_lat": "39.973112", "stop_name": "29th St And Poplar St", "stop_lon": "-75.183898", "stop_id": "1313"}, {"stop_lat": "39.952449", "stop_name": "15th St And Market St", "stop_lon": "-75.165476", "stop_id": "10266"}, {"stop_lat": "39.938849", "stop_name": "Broad St And Washington Ave", "stop_lon": "-75.166423", "stop_id": "5150"}]}}