{"posts": {"post": [{"stop_lat": "39.951033", "stop_name": "Independence Mall (5th And Market St)", "stop_lon": "-75.148664", "stop_id": "638"}, {"stop_lat": "39.953626", "stop_name": "15th St And JFK Blvd", "stop_lon": "-75.164846", "stop_id": "17842"}, {"stop_lat": "39.966185", "stop_name": "Art Museum (West Entrance)", "stop_lon": "-75.182239", "stop_id": "640"}, {"stop_lat": "39.967077", "stop_name": "34th St And Mantua Ave", "stop_lon": "-75.192636", "stop_id": "641"}, {"stop_lat": "39.976597", "stop_name": "40th St And Parkside Ave", "stop_lon": "-75.210276", "stop_id": "25984"}, {"stop_lat": "40.008010", "stop_name": "Presidential Blvd And Winding Way", "stop_lon": "-75.210254", "stop_id": "740"}, {"stop_lat": "40.014754", "stop_name": "Wissahickon Transportation Center", "stop_lon": "-75.207027", "stop_id": "28"}]}}