{"posts": {"post": [{"stop_lat": "39.951578", "stop_name": "Wycombe (Sherbrook And Springton)", "stop_lon": "-75.267732", "stop_id": "26125"}, {"stop_lat": "39.955562", "stop_name": "61st St And Pine St", "stop_lon": "-75.244589", "stop_id": "437"}, {"stop_lat": "39.954561", "stop_name": "52nd St And Spruce St", "stop_lon": "-75.226050", "stop_id": "671"}, {"stop_lat": "39.951639", "stop_name": "40th St And Spruce St", "stop_lon": "-75.203114", "stop_id": "672"}, {"stop_lat": "39.950724", "stop_name": "Broad St And Walnut St", "stop_lon": "-75.164384", "stop_id": "6115"}, {"stop_lat": "39.948691", "stop_name": "Penn's Landing (Viaduct)", "stop_lon": "-75.140087", "stop_id": "593"}]}}