{"posts": {"post": [{"stop_lat": "39.948691", "stop_name": "Penn's Landing (Viaduct)", "stop_lon": "-75.140087", "stop_id": "593"}, {"stop_lat": "39.947479", "stop_name": "5th St And Walnut St", "stop_lon": "-75.149789", "stop_id": "14880"}, {"stop_lat": "39.949217", "stop_name": "Broad St And Walnut St", "stop_lon": "-75.163660", "stop_id": "130"}, {"stop_lat": "39.950965", "stop_name": "22nd St And Walnut St", "stop_lon": "-75.177184", "stop_id": "14089"}, {"stop_lat": "39.951782", "stop_name": "40th St And Spruce St", "stop_lon": "-75.203102", "stop_id": "674"}, {"stop_lat": "39.954667", "stop_name": "52nd St And Spruce St", "stop_lon": "-75.225767", "stop_id": "675"}, {"stop_lat": "39.955562", "stop_name": "61st St And Pine St", "stop_lon": "-75.244589", "stop_id": "437"}, {"stop_lat": "39.951578", "stop_name": "Wycombe (Sherbrook And Springton)", "stop_lon": "-75.267732", "stop_id": "26125"}]}}