{"posts": {"post": [{"stop_lat": "40.008564", "stop_name": "Ardmore Station", "stop_lon": "-75.289846", "stop_id": "694"}, {"stop_lat": "40.006568", "stop_name": "Narberth Station", "stop_lon": "-75.262742", "stop_id": "695"}, {"stop_lat": "40.008356", "stop_name": "Haverford And Montgomery Ave", "stop_lon": "-75.252429", "stop_id": "696"}, {"stop_lat": "39.997414", "stop_name": "54th St And City Ave", "stop_lon": "-75.234342", "stop_id": "6239"}, {"stop_lat": "40.039549", "stop_name": "Gladwyne", "stop_lon": "-75.279806", "stop_id": "21652"}, {"stop_lat": "40.040510", "stop_name": "Oak Hill Apartments", "stop_lon": "-75.255339", "stop_id": "30223"}, {"stop_lat": "40.000217", "stop_name": "Bala And City Ave (Bala)", "stop_lon": "-75.228922", "stop_id": "698"}, {"stop_lat": "40.008264", "stop_name": "City Ave And Presidential Blvd", "stop_lon": "-75.210912", "stop_id": "699"}, {"stop_lat": "39.957899", "stop_name": "23rd St And Race St", "stop_lon": "-75.177100", "stop_id": "1167"}, {"stop_lat": "39.954490", "stop_name": "30th St And Market St", "stop_lon": "-75.181494", "stop_id": "21529"}, {"stop_lat": "39.952640", "stop_name": "16th St And Market St", "stop_lon": "-75.167058", "stop_id": "18451"}, {"stop_lat": "39.951033", "stop_name": "5th St And Market St", "stop_lon": "-75.148664", "stop_id": "638"}]}}