{"posts": {"post": [{"stop_lat": "39.949864", "stop_name": "Front St And Market St", "stop_lon": "-75.142588", "stop_id": "69"}, {"stop_lat": "39.954389", "stop_name": "Broad St And Arch St", "stop_lon": "-75.162847", "stop_id": "4474"}, {"stop_lat": "39.956050", "stop_name": "22nd St And Arch St", "stop_lon": "-75.176079", "stop_id": "107"}, {"stop_lat": "39.974423", "stop_name": "29th St And Girard Ave", "stop_lon": "-75.183374", "stop_id": "751"}, {"stop_lat": "39.990793", "stop_name": "29th St And Dauphin St", "stop_lon": "-75.179773", "stop_id": "752"}, {"stop_lat": "40.004043", "stop_name": "27th St And Allegheny Ave", "stop_lon": "-75.173771", "stop_id": "753"}]}}