{"posts": {"post": [{"stop_lat": "40.023651", "stop_name": "Frankford Transportation Center", "stop_lon": "-75.077621", "stop_id": "340"}, {"stop_lat": "40.044120", "stop_name": "Roosevelt Blvd And Cottman Ave", "stop_lon": "-75.054168", "stop_id": "8"}, {"stop_lat": "40.070126", "stop_name": "Grant Ave And Academy Rd", "stop_lon": "-75.005416", "stop_id": "23700"}, {"stop_lat": "40.083425", "stop_name": "Red Lion Rd And Decatur Rd", "stop_lon": "-75.001162", "stop_id": "20423"}, {"stop_lat": "40.086100", "stop_name": "Franklin Mills Mall (Marshall's)", "stop_lon": "-74.964244", "stop_id": "410"}, {"stop_lat": "40.120767", "stop_name": "Parx Casino", "stop_lon": "-74.952477", "stop_id": "18973"}]}}