{"posts": {"post": [{"stop_lat": "40.120767", "stop_name": "Parx Casino", "stop_lon": "-74.952477", "stop_id": "18973"}, {"stop_lat": "40.086100", "stop_name": "Franklin Mills Mall (Marshall's)", "stop_lon": "-74.964244", "stop_id": "410"}, {"stop_lat": "40.083460", "stop_name": "Red Lion Rd And Decatur Rd", "stop_lon": "-75.001466", "stop_id": "23391"}, {"stop_lat": "40.070367", "stop_name": "Grant Ave And Academy Rd", "stop_lon": "-75.005427", "stop_id": "23916"}, {"stop_lat": "40.044648", "stop_name": "Roosevelt Blvd And Cottman Ave", "stop_lon": "-75.054650", "stop_id": "22"}, {"stop_lat": "40.023329", "stop_name": "Frankford Transportation Center", "stop_lon": "-75.077374", "stop_id": "21204"}]}}