{"posts": {"post": [{"stop_lat": "40.038707", "stop_name": "Olney Transportation Center", "stop_lon": "-75.144136", "stop_id": "382"}, {"stop_lat": "40.062297", "stop_name": "Old York Rd And Cheltenham Ave", "stop_lon": "-75.136416", "stop_id": "806"}, {"stop_lat": "40.107790", "stop_name": "Old York And Harte Rds (Jenkintown)", "stop_lon": "-75.123213", "stop_id": "807"}, {"stop_lat": "40.127183", "stop_name": "Old York And Edgehill Rds (Abington)", "stop_lon": "-75.117004", "stop_id": "808"}, {"stop_lat": "40.142263", "stop_name": "Willow Grove Park Mall", "stop_lon": "-75.122493", "stop_id": "809"}, {"stop_lat": "40.229026", "stop_name": "Easton And Street Rd (Warrington)", "stop_lon": "-75.138674", "stop_id": "30182"}, {"stop_lat": "40.333753", "stop_name": "Cross Keys Shop Ctr (Doylestown)", "stop_lon": "-75.132425", "stop_id": "814"}]}}