{"posts": {"post": [{"stop_lat": "40.022920", "stop_name": "Frankford Transportation Center", "stop_lon": "-75.077861", "stop_id": "867"}, {"stop_lat": "40.047556", "stop_name": "Bustleton Ave And Cottman Ave", "stop_lon": "-75.059873", "stop_id": "868"}, {"stop_lat": "40.066469", "stop_name": "Bustleton And Castor (Bells Corner)", "stop_lon": "-75.051105", "stop_id": "23111"}, {"stop_lat": "40.097275", "stop_name": "Red Lion Rd And Haldeman Ave", "stop_lon": "-75.018189", "stop_id": "870"}, {"stop_lat": "40.107843", "stop_name": "Bustleton Ave And Verree Rd", "stop_lon": "-75.026543", "stop_id": "982"}, {"stop_lat": "40.113457", "stop_name": "Bustleton Ave And Tomlinson Rd", "stop_lon": "-75.023730", "stop_id": "872"}, {"stop_lat": "40.116694", "stop_name": "Bustleton Ave And Rennard St", "stop_lon": "-75.020077", "stop_id": "873"}, {"stop_lat": "40.134224", "stop_name": "Bustleton Ave And County Line Rd", "stop_lon": "-75.009168", "stop_id": "874"}, {"stop_lat": "40.151147", "stop_name": "Elmwood Ave And Brownsville Rd", "stop_lon": "-74.975603", "stop_id": "875"}, {"stop_lat": "40.137686", "stop_name": "Neshaminy Mall (Boscov's)", "stop_lon": "-74.953631", "stop_id": "330"}]}}