{"posts": {"post": [{"stop_lat": "39.984262", "stop_name": "Richmond St And Westmoreland St", "stop_lon": "-75.099458", "stop_id": "341"}, {"stop_lat": "39.996382", "stop_name": "Kensington Ave And Allegheny Ave", "stop_lon": "-75.113216", "stop_id": "4367"}, {"stop_lat": "39.999727", "stop_name": "5th St And Allegheny Ave", "stop_lon": "-75.138324", "stop_id": "20599"}, {"stop_lat": "40.001553", "stop_name": "Broad St And Allegheny Ave", "stop_lon": "-75.152650", "stop_id": "20600"}, {"stop_lat": "40.003232", "stop_name": "22nd St And Allegheny Ave", "stop_lon": "-75.165773", "stop_id": "4334"}, {"stop_lat": "40.006011", "stop_name": "35th St And Allegheny Ave", "stop_lon": "-75.186549", "stop_id": "30112"}]}}