{"posts": {"post": [{"stop_lat": "39.951666", "stop_name": "9th St And Market St", "stop_lon": "-75.154957", "stop_id": "915"}, {"stop_lat": "39.972291", "stop_name": "Ridge Ave And Girard Ave", "stop_lon": "-75.166442", "stop_id": "917"}, {"stop_lat": "39.991607", "stop_name": "Ridge Ave And Dauphin St", "stop_lon": "-75.185524", "stop_id": "918"}, {"stop_lat": "40.005889", "stop_name": "Ridge Ave And Allegheny Ave", "stop_lon": "-75.187779", "stop_id": "920"}, {"stop_lat": "40.014852", "stop_name": "Wissahickon Transportation Center", "stop_lon": "-75.206885", "stop_id": "2"}, {"stop_lat": "40.030820", "stop_name": "Flat Rock Rd (Container Loop)", "stop_lon": "-75.234322", "stop_id": "909"}, {"stop_lat": "40.038433", "stop_name": "Domino And Umbria (Roxborough)", "stop_lon": "-75.240094", "stop_id": "922"}, {"stop_lat": "40.047109", "stop_name": "Ridge Ave And Domino Lane", "stop_lon": "-75.234443", "stop_id": "12329"}, {"stop_lat": "40.056805", "stop_name": "Ridge And Summit (Upper Roxborough)", "stop_lon": "-75.236297", "stop_id": "122"}]}}