{"posts": {"post": [{"stop_lat": "40.066927", "stop_name": "Wissahickon And Cathdral (Andorra)", "stop_lon": "-75.230935", "stop_id": "121"}, {"stop_lat": "40.056805", "stop_name": "Ridge And Summit (Upper Roxborough)", "stop_lon": "-75.236297", "stop_id": "122"}, {"stop_lat": "40.045204", "stop_name": "Ridge Ave And Domino La", "stop_lon": "-75.232225", "stop_id": "18380"}, {"stop_lat": "40.038318", "stop_name": "Domino And Umbria (Roxborough)", "stop_lon": "-75.240106", "stop_id": "908"}, {"stop_lat": "40.014754", "stop_name": "Wissahickon Transportation Center", "stop_lon": "-75.207027", "stop_id": "28"}, {"stop_lat": "39.951666", "stop_name": "9th St And Market St", "stop_lon": "-75.154957", "stop_id": "915"}]}}