{"posts": {"post": [{"stop_lat": "40.054006", "stop_name": "Frankford Ave And Gregg St", "stop_lon": "-75.005346", "stop_id": "1227"}, {"stop_lat": "40.032038", "stop_name": "State Rd And Rhawn St", "stop_lon": "-75.020455", "stop_id": "22700"}, {"stop_lat": "40.029918", "stop_name": "Cottman Ave And Torresdale Ave", "stop_lon": "-75.036013", "stop_id": "523"}, {"stop_lat": "40.031132", "stop_name": "Cottman Ave And Ditman St", "stop_lon": "-75.035947", "stop_id": "1021"}, {"stop_lat": "40.047770", "stop_name": "Cottman Ave And Bustleton Ave", "stop_lon": "-75.060014", "stop_id": "1024"}, {"stop_lat": "40.061350", "stop_name": "Cottman Ave And Oxford Ave", "stop_lon": "-75.083420", "stop_id": "1028"}, {"stop_lat": "40.054948", "stop_name": "Oak Lane Rd And Cheltenham Ave", "stop_lon": "-75.124584", "stop_id": "1030"}, {"stop_lat": "40.041993", "stop_name": "Fern Rock Transportation Center", "stop_lon": "-75.136993", "stop_id": "841"}]}}