{"posts": {"post": [{"stop_lat": "39.925729", "stop_name": "Pier 70", "stop_lon": "-75.141670", "stop_id": "101"}, {"stop_lat": "39.916877", "stop_name": "Broad St And Oregon Ave", "stop_lon": "-75.171013", "stop_id": "103"}, {"stop_lat": "39.918067", "stop_name": "20th St And Oregon Ave", "stop_lon": "-75.180614", "stop_id": "21346"}, {"stop_lat": "39.939368", "stop_name": "22nd St And Washington Ave", "stop_lon": "-75.179799", "stop_id": "106"}, {"stop_lat": "39.955907", "stop_name": "22nd St And Arch St", "stop_lon": "-75.176222", "stop_id": "21436"}, {"stop_lat": "39.974077", "stop_name": "27th St And Girard Ave", "stop_lon": "-75.180327", "stop_id": "108"}, {"stop_lat": "39.991992", "stop_name": "33rd St And Dauphin St", "stop_lon": "-75.186019", "stop_id": "644"}]}}