{"posts": {"post": [{"stop_lat": "40.113530", "stop_name": "Norristown Transportation Center", "stop_lon": "-75.345066", "stop_id": "1649"}, {"stop_lat": "40.123591", "stop_name": "Main St And Forrest Ave", "stop_lon": "-75.362135", "stop_id": "26685"}, {"stop_lat": "40.157722", "stop_name": "Eagleville Plaza", "stop_lon": "-75.404681", "stop_id": "1563"}, {"stop_lat": "40.158213", "stop_name": "Montgomery County Correct. Facility", "stop_lon": "-75.419494", "stop_id": "20854"}, {"stop_lat": "40.192913", "stop_name": "Main St And 9th Ave", "stop_lon": "-75.462120", "stop_id": "1589"}, {"stop_lat": "40.238064", "stop_name": "Philadelphia Premium Outlets", "stop_lon": "-75.572913", "stop_id": "30491"}, {"stop_lat": "40.244045", "stop_name": "Pottstown Mem. Medical Center", "stop_lon": "-75.613359", "stop_id": "1591"}, {"stop_lat": "40.244772", "stop_name": "Montgomery Cty Comm. College", "stop_lon": "-75.655868", "stop_id": "1594"}]}}