{"posts": {"post": [{"stop_lat": "40.063563", "stop_name": "Ridge Ave And Cathedral Rd", "stop_lon": "-75.239800", "stop_id": "19281"}, {"stop_lat": "40.032832", "stop_name": "Ridge And Lyceum Aves", "stop_lon": "-75.214762", "stop_id": "123"}, {"stop_lat": "40.014745", "stop_name": "Wissahickon Transportation Center", "stop_lon": "-75.206862", "stop_id": "30596"}, {"stop_lat": "39.955437", "stop_name": "30th And Market Sts", "stop_lon": "-75.183237", "stop_id": "1537"}, {"stop_lat": "39.952558", "stop_name": "23rd And Chestnut Sts", "stop_lon": "-75.178240", "stop_id": "6067"}, {"stop_lat": "39.950724", "stop_name": "Broad And Chestnut Sts", "stop_lon": "-75.164384", "stop_id": "6115"}, {"stop_lat": "39.947323", "stop_name": "4th And Walnut Sts", "stop_lon": "-75.147924", "stop_id": "18095"}]}}