{"posts": {"post": [{"stop_lat": "39.947323", "stop_name": "4th St And Walnut St", "stop_lon": "-75.147924", "stop_id": "18095"}, {"stop_lat": "39.949217", "stop_name": "Broad St And Walnut St", "stop_lon": "-75.163660", "stop_id": "130"}, {"stop_lat": "39.951110", "stop_name": "23rd St And Walnut St", "stop_lon": "-75.178305", "stop_id": "131"}, {"stop_lat": "39.955202", "stop_name": "29th St And Market St", "stop_lon": "-75.180759", "stop_id": "30576"}, {"stop_lat": "40.014852", "stop_name": "Wissahickon Transportation Center", "stop_lon": "-75.206885", "stop_id": "2"}, {"stop_lat": "40.032716", "stop_name": "Ridge And Lyceum Aves", "stop_lon": "-75.214491", "stop_id": "12302"}, {"stop_lat": "40.063563", "stop_name": "Ridge Ave And Cathedral Rd", "stop_lon": "-75.239800", "stop_id": "19281"}]}}