{"posts": {"post": [{"stop_lat": "40.041993", "stop_name": "Fern Rock Transportation Center", "stop_lon": "-75.136993", "stop_id": "841"}, {"stop_lat": "40.038793", "stop_name": "Olney Transportation Center", "stop_lon": "-75.145032", "stop_id": "17225"}, {"stop_lat": "40.030573", "stop_name": "Logan", "stop_lon": "-75.146710", "stop_id": "15790"}, {"stop_lat": "40.024695", "stop_name": "Wyoming", "stop_lon": "-75.148022", "stop_id": "15973"}, {"stop_lat": "40.017014", "stop_name": "Hunting Park", "stop_lon": "-75.149648", "stop_id": "30489"}, {"stop_lat": "40.009358", "stop_name": "Erie", "stop_lon": "-75.151338", "stop_id": "29964"}, {"stop_lat": "40.001661", "stop_name": "Allegheny", "stop_lon": "-75.153005", "stop_id": "21194"}, {"stop_lat": "39.996772", "stop_name": "North Philadelphia", "stop_lon": "-75.154016", "stop_id": "17129"}, {"stop_lat": "39.986424", "stop_name": "Susquehanna-Dauphin", "stop_lon": "-75.156312", "stop_id": "17138"}, {"stop_lat": "39.978699", "stop_name": "Cecil B Moore", "stop_lon": "-75.157901", "stop_id": "17162"}, {"stop_lat": "39.971517", "stop_name": "Girard", "stop_lon": "-75.159464", "stop_id": "143"}, {"stop_lat": "39.966870", "stop_name": "Fairmount", "stop_lon": "-75.160533", "stop_id": "17165"}, {"stop_lat": "39.961831", "stop_name": "Spring Garden", "stop_lon": "-75.161648", "stop_id": "17168"}, {"stop_lat": "39.956343", "stop_name": "Race-Vine", "stop_lon": "-75.162875", "stop_id": "17170"}, {"stop_lat": "39.952752", "stop_name": "City Hall", "stop_lon": "-75.165297", "stop_id": "515"}, {"stop_lat": "39.949377", "stop_name": "Walnut-Locust", "stop_lon": "-75.164519", "stop_id": "15186"}, {"stop_lat": "39.944764", "stop_name": "Lombard-South", "stop_lon": "-75.165433", "stop_id": "15190"}, {"stop_lat": "39.936825", "stop_name": "Ellsworth-Federal", "stop_lon": "-75.167139", "stop_id": "17177"}, {"stop_lat": "39.929305", "stop_name": "Tasker-Morris", "stop_lon": "-75.168725", "stop_id": "17190"}, {"stop_lat": "39.924443", "stop_name": "Snyder", "stop_lon": "-75.169758", "stop_id": "5308"}, {"stop_lat": "39.916263", "stop_name": "Oregon", "stop_lon": "-75.171558", "stop_id": "20960"}, {"stop_lat": "39.905119", "stop_name": "ATAndT", "stop_lon": "-75.173097", "stop_id": "363"}]}}