{"posts": {"post": [{"stop_lat": "39.905209", "stop_name": "ATAndT", "stop_lon": "-75.173439", "stop_id": "356"}, {"stop_lat": "39.916405", "stop_name": "Oregon", "stop_lon": "-75.171178", "stop_id": "20959"}, {"stop_lat": "39.924157", "stop_name": "Snyder", "stop_lon": "-75.169487", "stop_id": "17238"}, {"stop_lat": "39.930383", "stop_name": "Tasker-Morris", "stop_lon": "-75.168213", "stop_id": "17244"}, {"stop_lat": "39.936673", "stop_name": "Ellsworth-Federal", "stop_lon": "-75.166927", "stop_id": "17249"}, {"stop_lat": "39.944621", "stop_name": "Lombard-South", "stop_lon": "-75.165186", "stop_id": "5233"}, {"stop_lat": "39.949091", "stop_name": "Walnut-Locust", "stop_lon": "-75.164272", "stop_id": "15941"}, {"stop_lat": "39.952449", "stop_name": "City Hall", "stop_lon": "-75.165476", "stop_id": "10266"}, {"stop_lat": "39.958181", "stop_name": "Race-Vine", "stop_lon": "-75.162290", "stop_id": "17263"}, {"stop_lat": "39.962204", "stop_name": "Spring Garden", "stop_lon": "-75.161330", "stop_id": "17265"}, {"stop_lat": "39.966825", "stop_name": "Fairmount", "stop_lon": "-75.160261", "stop_id": "21197"}, {"stop_lat": "39.971276", "stop_name": "Girard", "stop_lon": "-75.159382", "stop_id": "164"}, {"stop_lat": "39.978556", "stop_name": "Cecil B Moore", "stop_lon": "-75.157819", "stop_id": "17277"}, {"stop_lat": "39.986217", "stop_name": "Susquehanna-Dauphin", "stop_lon": "-75.156218", "stop_id": "17282"}, {"stop_lat": "39.993719", "stop_name": "North Philadelphia", "stop_lon": "-75.154547", "stop_id": "17288"}, {"stop_lat": "40.001419", "stop_name": "Allegheny", "stop_lon": "-75.152781", "stop_id": "165"}, {"stop_lat": "40.009047", "stop_name": "Erie", "stop_lon": "-75.151109", "stop_id": "166"}, {"stop_lat": "40.016870", "stop_name": "Hunting Park", "stop_lon": "-75.149447", "stop_id": "17304"}, {"stop_lat": "40.024524", "stop_name": "Wyoming", "stop_lon": "-75.147798", "stop_id": "17309"}, {"stop_lat": "40.030635", "stop_name": "Logan", "stop_lon": "-75.146485", "stop_id": "17313"}, {"stop_lat": "40.038949", "stop_name": "Olney Transportation Center", "stop_lon": "-75.144631", "stop_id": "21191"}, {"stop_lat": "40.041993", "stop_name": "Fern Rock Transportation Center", "stop_lon": "-75.136993", "stop_id": "841"}]}}