{"posts": {"post": [{"stop_lat": "40.016923", "stop_name": "Arrott Terminal (Margaret And Orthodox)", "stop_lon": "-75.084474", "stop_id": "220"}, {"stop_lat": "40.029484", "stop_name": "Tower Blvd And Roosevelt Blvd", "stop_lon": "-75.101085", "stop_id": "24"}, {"stop_lat": "40.045694", "stop_name": "5th St And Godfrey Ave", "stop_lon": "-75.128287", "stop_id": "865"}, {"stop_lat": "40.053677", "stop_name": "66th Ave And Broad St", "stop_lon": "-75.141309", "stop_id": "222"}, {"stop_lat": "40.045385", "stop_name": "Chew Ave And Chelten Ave", "stop_lon": "-75.165121", "stop_id": "21228"}, {"stop_lat": "40.031534", "stop_name": "Chelten Ave And Wayne Ave", "stop_lon": "-75.178744", "stop_id": "224"}, {"stop_lat": "40.008965", "stop_name": "Ridge Ave And Midvale Ave", "stop_lon": "-75.193951", "stop_id": "21229"}]}}