{"posts": {"post": [{"stop_lat": "39.962133", "stop_name": "69th Street Terminal", "stop_lon": "-75.258331", "stop_id": "1148"}, {"stop_lat": "39.962564", "stop_name": "Millbourne", "stop_lon": "-75.251952", "stop_id": "19032"}, {"stop_lat": "39.962616", "stop_name": "63rd St And Market St", "stop_lon": "-75.246932", "stop_id": "18991"}, {"stop_lat": "39.960388", "stop_name": "60th St And Market St", "stop_lon": "-75.241198", "stop_id": "419"}, {"stop_lat": "39.959421", "stop_name": "56th St And Market St", "stop_lon": "-75.233252", "stop_id": "19079"}, {"stop_lat": "39.958463", "stop_name": "52nd St And Market St", "stop_lon": "-75.225423", "stop_id": "420"}, {"stop_lat": "39.956997", "stop_name": "46th St And Market St", "stop_lon": "-75.213489", "stop_id": "19124"}, {"stop_lat": "39.957117", "stop_name": "40th St And Market St", "stop_lon": "-75.202175", "stop_id": "299"}, {"stop_lat": "39.955803", "stop_name": "34th St And Market St", "stop_lon": "-75.191645", "stop_id": "18995"}, {"stop_lat": "39.954761", "stop_name": "30th St And Market St", "stop_lon": "-75.183595", "stop_id": "18996"}, {"stop_lat": "39.952449", "stop_name": "15th St And Market St", "stop_lon": "-75.165476", "stop_id": "10266"}, {"stop_lat": "39.951950", "stop_name": "13th St And Market St", "stop_lon": "-75.161581", "stop_id": "10263"}, {"stop_lat": "39.951668", "stop_name": "11th St And Market St", "stop_lon": "-75.159208", "stop_id": "10259"}, {"stop_lat": "39.951077", "stop_name": "8th St And Market St", "stop_lon": "-75.154321", "stop_id": "18457"}, {"stop_lat": "39.950405", "stop_name": "5th St And Market St", "stop_lon": "-75.148975", "stop_id": "14913"}, {"stop_lat": "39.949613", "stop_name": "2nd St And Market St", "stop_lon": "-75.142247", "stop_id": "7657"}, {"stop_lat": "39.960200", "stop_name": "Spring Garden", "stop_lon": "-75.138992", "stop_id": "19002"}, {"stop_lat": "39.968958", "stop_name": "Girard", "stop_lon": "-75.136003", "stop_id": "18987"}, {"stop_lat": "39.978563", "stop_name": "Berks", "stop_lon": "-75.133495", "stop_id": "19003"}, {"stop_lat": "39.984665", "stop_name": "York-Dauphin", "stop_lon": "-75.132300", "stop_id": "19004"}, {"stop_lat": "39.988661", "stop_name": "Huntingdon", "stop_lon": "-75.127534", "stop_id": "19005"}, {"stop_lat": "39.991282", "stop_name": "Somerset", "stop_lon": "-75.122679", "stop_id": "19006"}, {"stop_lat": "39.996311", "stop_name": "Allegheny", "stop_lon": "-75.113417", "stop_id": "21175"}, {"stop_lat": "40.000149", "stop_name": "Tioga", "stop_lon": "-75.106463", "stop_id": "19007"}, {"stop_lat": "40.005780", "stop_name": "Erie-Torresdale", "stop_lon": "-75.096168", "stop_id": "19008"}, {"stop_lat": "40.010803", "stop_name": "Church", "stop_lon": "-75.088616", "stop_id": "23962"}, {"stop_lat": "40.014704", "stop_name": "Margaret-Orthodox", "stop_lon": "-75.085643", "stop_id": "19010"}, {"stop_lat": "40.023329", "stop_name": "Frankford Transportation Center", "stop_lon": "-75.077374", "stop_id": "21204"}]}}